lat,lon,num,size,name,color
141.347899,43.063968,300000,1000,sapporo,red
140.467521,37.750299,500000,1000,hukushima,green
139.648933,35.857428,200000,1000,saitama,blue
136.625573,36.594682,100000,1000,ishikawa,pink
134.043444,34.340149,600000,1000,kagawa,violet
